[
  {
    "season": 1,
    "episode": 1,
    "place": "Khlong Lat Mayom Floating Market",
    "latitude": 13.76076,
    "longitude": 100.41557
  },
  {
    "season": 1,
    "episode": 1,
    "place": "Author's Lounge",
    "latitude": 13.72417,
    "longitude": 100.51433
  },
  {
    "season": 1,
    "episode": 1,
    "place": "Err Urban Rustic Thai",
    "latitude": 13.72472,
    "longitude": 100.57964
  },
  {
    "season": 1,
    "episode": 1,
    "place": "Yaorawat Road Market",
    "latitude": 13.72279,
    "longitude": 100.71095
  },
  {
    "season": 1,
    "episode": 1,
    "place": "Jay Fai",
    "latitude": 13.75258,
    "longitude": 100.5048
  },
  {
    "season": 1,
    "episode": 1,
    "place": "Issaya Siamese Club",
    "latitude": 13.72057,
    "longitude": 100.55193
  },
  {
    "season": 1,
    "episode": 1,
    "place": "Gaggan Anand",
    "latitude": 13.7408,
    "longitude": 100.56765
  },
  {
    "season": 1,
    "episode": 2,
    "place": "Phở Bò Phú Gia",
    "latitude": 10.78643,
    "longitude": 106.68454
  },
  {
    "season": 1,
    "episode": 2,
    "place": "Cậu Ba Quán",
    "latitude": 10.79262,
    "longitude": 106.70179
  },
  {
    "season": 1,
    "episode": 2,
    "place": "Cậu Ba Quán",
    "latitude": 10.79262,
    "longitude": 106.70179
  },
  {
    "season": 1,
    "episode": 2,
    "place": "Vy Da Quan",
    "latitude": 10.77481,
    "longitude": 106.68862
  },
  {
    "season": 1,
    "episode": 2,
    "place": "Quán Ăn Cô Liêng - Bò Lá Lốt",
    "latitude": 10.77158,
    "longitude": 106.68581
  },
  {
    "season": 1,
    "episode": 2,
    "place": "Maison Merou",
    "latitude": 10.76947,
    "longitude": 106.69797
  },
  {
    "season": 1,
    "episode": 2,
    "place": "Hoang Minh Cơm tấm",
    "latitude": 10.76832,
    "longitude": 106.69509
  },
  {
    "season": 1,
    "episode": 3,
    "place": "Dr. Shakshouka",
    "latitude": 32.05427,
    "longitude": 34.75657
  },
  {
    "season": 1,
    "episode": 3,
    "place": "Hummus HaCarmel",
    "latitude": 32.0709,
    "longitude": 34.76967
  },
  {
    "season": 1,
    "episode": 3,
    "place": "Abu Hassan",
    "latitude": 32.04941,
    "longitude": 34.75738
  },
  {
    "season": 1,
    "episode": 3,
    "place": "Sabich Tchernikhovski",
    "latitude": 32.0704,
    "longitude": 34.7704
  },
  {
    "season": 1,
    "episode": 3,
    "place": "Shimon The King of Soups",
    "latitude": 32.06908,
    "longitude": 34.76809
  },
  {
    "season": 1,
    "episode": 3,
    "place": "Rothschilda",
    "latitude": 32.06569,
    "longitude": 34.77748
  },
  {
    "season": 1,
    "episode": 3,
    "place": "Abu Lafia Bakery",
    "latitude": 32.07317,
    "longitude": 34.76508
  },
  {
    "season": 1,
    "episode": 3,
    "place": "Zakaim",
    "latitude": 32.06572,
    "longitude": 34.77172,
    "status": "permclosed"
  },
  {
    "season": 1,
    "episode": 3,
    "place": "Mashya",
    "latitude": 32.07928,
    "longitude": 34.76875
  },
  {
    "season": 1,
    "episode": 3,
    "place": "Shuk HaNamal",
    "latitude": 32.09882,
    "longitude": 34.77373
  },
  {
    "season": 1,
    "episode": 3,
    "place": "Sherry Herring",
    "latitude": 32.09882,
    "longitude": 34.77373
  },
  {
    "season": 1,
    "episode": 3,
    "place": "Mizpe Hayamim Hotel",
    "latitude": 32.96032,
    "longitude": 35.51542
  },
  {
    "season": 1,
    "episode": 3,
    "place": "Acre Old City Market",
    "latitude": 32.92753,
    "longitude": 35.07532
  },
  {
    "season": 1,
    "episode": 3,
    "place": "Uri Buri fish Restaurant",
    "latitude": 32.92778,
    "longitude": 35.06925
  },
  {
    "season": 1,
    "episode": 4,
    "place": "Manteigaria",
    "latitude": 38.71076,
    "longitude": -9.14399
  },
  {
    "season": 1,
    "episode": 4,
    "place": "Time Out Market",
    "latitude": 38.70672,
    "longitude": -9.14595
  },
  {
    "season": 1,
    "episode": 4,
    "place": "Tricana",
    "latitude": 38.73376,
    "longitude": -9.14599
  },
  {
    "season": 1,
    "episode": 4,
    "place": "Belcanto",
    "latitude": 38.7101,
    "longitude": -9.14148
  },
  {
    "season": 1,
    "episode": 4,
    "place": "Ponto Final",
    "latitude": 38.68496,
    "longitude": -9.15769
  },
  {
    "season": 1,
    "episode": 4,
    "place": "Pastéis de Belém",
    "latitude": 38.69732,
    "longitude": -9.2029
  },
  {
    "season": 1,
    "episode": 4,
    "place": "Jesus é Goês",
    "latitude": 38.71823,
    "longitude": -9.14229
  },
  {
    "season": 1,
    "episode": 4,
    "place": "Manteigaria Silva",
    "latitude": 38.71448,
    "longitude": -9.13873
  },
  {
    "season": 1,
    "episode": 4,
    "place": "Ginjinha Sem Rival",
    "latitude": 38.71511,
    "longitude": -9.13962
  },
  {
    "season": 1,
    "episode": 4,
    "place": "Cervejaria Ramiro",
    "latitude": 38.72033,
    "longitude": -9.13571
  },
  {
    "season": 1,
    "episode": 4,
    "place": "Croissant Gigante",
    "latitude": 38.71174,
    "longitude": -9.14527
  },
  {
    "season": 1,
    "episode": 4,
    "place": "Nannarella",
    "latitude": 38.71417,
    "longitude": -9.15319
  },
  {
    "season": 1,
    "episode": 4,
    "place": "Wurst",
    "latitude": 38.7141,
    "longitude": -9.15319
  },
  {
    "season": 1,
    "episode": 4,
    "place": "Piriquita",
    "latitude": 38.79631,
    "longitude": -9.39075
  },
  {
    "season": 1,
    "episode": 4,
    "place": "Alma",
    "latitude": 38.71015,
    "longitude": -9.14109
  },
  {
    "season": 1,
    "episode": 4,
    "place": "Cafe Luso",
    "latitude": 38.71311,
    "longitude": -9.14381
  },
  {
    "season": 1,
    "episode": 5,
    "place": "Bevi Seafood",
    "latitude": 29.97576,
    "longitude": -90.09874
  },
  {
    "season": 1,
    "episode": 5,
    "place": "Cochon Butcher",
    "latitude": 29.94225,
    "longitude": -90.06719
  },
  {
    "season": 1,
    "episode": 5,
    "place": "Turkey and the Wolf",
    "latitude": 29.92719,
    "longitude": -90.07432
  },
  {
    "season": 1,
    "episode": 5,
    "place": "Shaya",
    "latitude": 29.92107,
    "longitude": -90.09956
  },
  {
    "season": 1,
    "episode": 5,
    "place": "Dooky Chase",
    "latitude": 29.96814,
    "longitude": -90.07847
  },
  {
    "season": 1,
    "episode": 5,
    "place": "Willie Mae's",
    "latitude": 29.95355,
    "longitude": -90.07478
  },
  {
    "season": 1,
    "episode": 5,
    "place": "Mosca's",
    "latitude": 29.91119,
    "longitude": -90.22927
  },
  {
    "season": 1,
    "episode": 5,
    "place": "Camellia Grill",
    "latitude": 29.94384,
    "longitude": -90.13391
  },
  {
    "season": 1,
    "episode": 6,
    "place": "Molino El Pujol",
    "latitude": 19.40759,
    "longitude": -99.17721
  },
  {
    "season": 1,
    "episode": 6,
    "place": "Fonda Margarita",
    "latitude": 19.37814,
    "longitude": -99.17087
  },
  {
    "season": 1,
    "episode": 6,
    "place": "El Moro",
    "latitude": 19.41881,
    "longitude": -99.1557
  },
  {
    "season": 1,
    "episode": 6,
    "place": "Cantina La Mascota",
    "latitude": 19.42888,
    "longitude": -99.13895
  },
  {
    "season": 1,
    "episode": 6,
    "place": "Rosetta",
    "latitude": 19.41983,
    "longitude": -99.15997
  },
  {
    "season": 1,
    "episode": 6,
    "place": "El Huequito",
    "latitude": 19.39225,
    "longitude": -99.17944
  },
  {
    "season": 1,
    "episode": 6,
    "place": "Amaya",
    "latitude": 19.43077,
    "longitude": -99.15618
  }
]
