[
  { "place": "Mandi", "latitude": 31.71194, "longitude": 76.93273 },
  { "place": "New Delhi", "latitude": 28.63576, "longitude": 77.22445 },
  { "place": "Gurugram", "latitude": 28.4601, "longitude": 77.02635 },
  { "place": "Keylong", "latitude": 32.5711, "longitude": 77.0306 },
  { "place": "Rohtang La", "latitude": 32.37155, "longitude": 77.24719 },
  { "place": "Manali", "latitude": 32.23963, "longitude": 77.18871 },
  { "place": "Kullu", "latitude": 31.95658, "longitude": 77.10954 },
  { "place": "Palampur", "latitude": 32.11453, "longitude": 76.55681 },
  { "place": "Dharamshala", "latitude": 32.22006, "longitude": 76.32013 },
  { "place": "Shimla", "latitude": 31.10442, "longitude": 77.16662 },
  { "place": "Solan", "latitude": 30.90908, "longitude": 77.10869 },
  { "place": "Chandigarh", "latitude": 30.73629, "longitude": 76.7884 },
  { "place": "Jalandhar", "latitude": 31.32556, "longitude": 75.57917 },
  { "place": "Amritsar", "latitude": 31.62234, "longitude": 74.87534 },
  { "place": "Jaipur", "latitude": 26.91962, "longitude": 75.78781 },
  {
    "place": "Ranthambore National Park",
    "latitude": 26.01733,
    "longitude": 76.50257
  },
  { "place": "Hyderabad", "latitude": 17.38405, "longitude": 78.45636 },
  { "place": "Mumbai", "latitude": 19.07283, "longitude": 72.88261 },
  { "place": "Panjim", "latitude": 15.49574, "longitude": 73.82624 },
  { "place": "Bengaluru", "latitude": 12.97194, "longitude": 77.59369 },
  { "place": "Mysuru", "latitude": 12.29791, "longitude": 76.63925 },
  { "place": "Ooty", "latitude": 11.4134, "longitude": 76.69521 },
  { "place": "Chennai", "latitude": 13.08784, "longitude": 80.27847 },
  { "place": "Puducherry", "latitude": 11.93381, "longitude": 79.82979 },
  { "place": "Wayanad", "latitude": 11.605, "longitude": 76.083 },
  { "place": "Coimbatore", "latitude": 11.00555, "longitude": 76.96612 },
  { "place": "New York", "latitude": 40.71427, "longitude": -74.00597 },
  { "place": "Jersey City", "latitude": 40.72816, "longitude": -74.07764 },
  { "place": "Hicksville", "latitude": 40.76843, "longitude": -73.52513 },
  { "place": "Harriman", "latitude": 41.30843, "longitude": -74.14459 },
  { "place": "Woodbury", "latitude": 41.36454, "longitude": -74.10598 },
  { "place": "Mount Pocono", "latitude": 41.12203, "longitude": -75.36463 },
  { "place": "Saugerties", "latitude": 42.07759, "longitude": -73.95291 },
  { "place": "Honeoye", "latitude": 42.79006, "longitude": -77.51694 },
  { "place": "Detroit", "latitude": 42.33143, "longitude": -83.04575 },
  { "place": "San Francisco", "latitude": 37.77493, "longitude": -122.41942 },
  { "place": "Redding", "latitude": 40.58654, "longitude": -122.39168 },
  { "place": "Weaverville", "latitude": 40.73098, "longitude": -122.94197 },
  { "place": "Leavenworth", "latitude": 47.59438, "longitude": -120.66325 },
  { "place": "Lassen Peak", "latitude": 40.48766, "longitude": -121.50498 },
  { "place": "Napa", "latitude": 38.29714, "longitude": -122.28553 },
  { "place": "Sunnyvale", "latitude": 37.36883, "longitude": -122.03635 },
  { "place": "Los Gatos", "latitude": 37.22661, "longitude": -121.97468 },
  { "place": "Santa Clara", "latitude": 37.35411, "longitude": -121.95524 },
  { "place": "San Jose", "latitude": 37.33939, "longitude": -121.89496 },
  { "place": "Santa Cruz", "latitude": 36.97412, "longitude": -122.0308 },
  { "place": "Watsonville", "latitude": 36.91023, "longitude": -121.75689 },
  { "place": "Monterey", "latitude": 36.60024, "longitude": -121.89468 },
  { "place": "Yosemite Valley", "latitude": 37.74075, "longitude": -119.57788 },
  { "place": "Tahoe City", "latitude": 39.17213, "longitude": -120.1388 },
  { "place": "Mammoth Lakes", "latitude": 37.64663, "longitude": -118.96021 },
  { "place": "Reno", "latitude": 39.52963, "longitude": -119.8138 },
  { "place": "Palo Alto", "latitude": 37.44188, "longitude": -122.14302 },
  { "place": "Seattle", "latitude": 47.60621, "longitude": -122.33207 },
  { "place": "Burlington", "latitude": 48.47566, "longitude": -122.32544 },
  { "place": "Anacortes", "latitude": 48.5126, "longitude": -122.61267 },
  { "place": "Mount Rainier", "latitude": 46.85283, "longitude": -121.76049 },
  { "place": "Los Angeles", "latitude": 34.05223, "longitude": -118.24368 },
  { "place": "Las Vegas", "latitude": 36.17497, "longitude": -115.13722 },
  {
    "place": "Grand Canyon Skywalk",
    "latitude": 36.01222,
    "longitude": -113.81111
  },
  { "place": "Miami", "latitude": 25.77427, "longitude": -80.19366 },
  { "place": "Philadelphia", "latitude": 39.95233, "longitude": -75.16379 },
  { "place": "San Diego", "latitude": 32.71533, "longitude": -117.15726 },
  { "place": "San Juan", "latitude": 18.46633, "longitude": -66.10572 },
  { "place": "Vieques", "latitude": 18.12913, "longitude": -65.4371 },
  { "place": "Singapore", "latitude": 1.28967, "longitude": 103.85007 },
  { "place": "Hyannis", "latitude": 41.65698, "longitude": -70.28375 },
  { "place": "Nantucket", "latitude": 41.28523, "longitude": -70.09914 },
  { "place": "Provincetown", "latitude": 42.05098, "longitude": -70.18726 },
  { "place": "Newport", "latitude": 44.93534, "longitude": -72.21069 },
  { "place": "New Orleans", "latitude": 29.95254, "longitude": -90.07669 }
]
